{"affiliates":[{"website":"http:\/\/www.crossfitampthill.co.uk\/","city":"Ampthill","kids":"1","photo_version":"2","name":"CrossFit Ampthill","zip":"MK45 2QY","bad_standing":"0","country":"United Kingdom","ready_to_link":"1","latlon":"52.0226859,-0.5101202","country_short_code":"GB","ordernum":"7724","org_type":"Commercial","status":"0","address":"Unit E, Station Road","active":"1","aid":"8013","show_on_map":"1","photo":"https:\/\/profilepicsbucket.crossfit.com\/488cc-A8013_2-184.jpg"},{"website":"http:\/\/www.crossfit-llanelli.co.uk\/","city":"Llanelli","kids":"1","photo_version":"1","name":"CrossFit Llanelli","zip":"SA14 9UU","bad_standing":"0","country":"United Kingdom","ready_to_link":"1","latlon":"51.672275698857206,-4.139463901519775","country_short_code":"GB","ordernum":"7728","org_type":"Commercial","status":"0","address":"Unit 8.4 Trostre Business Park","active":"1","aid":"10880","show_on_map":"1","photo":"https:\/\/profilepicsbucket.crossfit.com\/4fec4-A10880_1-184.jpg"},{"website":"http:\/\/www.crossfitdownpatrick.com\/","city":"Downpatrick","kids":"0","photo_version":"3","name":"CrossFit Downpatrick","zip":"BT306HD","bad_standing":"0","country":"United Kingdom","ready_to_link":"1","latlon":"54.3332425,-5.7162919","country_short_code":"GB","ordernum":"7749","org_type":"Commercial","status":"0","address":"104 Bridge Street","active":"1","aid":"8473","show_on_map":"1","photo":"https:\/\/profilepicsbucket.crossfit.com\/c20e5-A8473_3-184.jpg"},{"website":"http:\/\/www.crossfitironduke.com\/","city":"Waterlooville","kids":"1","photo_version":"1","name":"CrossFit Iron Duke","zip":"PO7 7XQ","bad_standing":"0","country":"United Kingdom","ready_to_link":"1","latlon":"50.8864663,-1.0366988","country_short_code":"GB","ordernum":"7832","org_type":"Commercial","status":"0","address":"34H Aston Road","active":"1","aid":"9666","show_on_map":"1","photo":"https:\/\/profilepicsbucket.crossfit.com\/6e487-A9666_1-184.jpg"},{"website":"http:\/\/www.cfdynamic.com\/","city":"Haverfordwest","kids":"0","photo_version":"2","name":"CrossFit Dynamic","zip":"SA61 4BT","bad_standing":"0","country":"United Kingdom","ready_to_link":"1","latlon":"40.77792137205106,-73.90344679355621","country_short_code":"GB","ordernum":"7856","org_type":"Commercial","status":"0","address":"Ridgeway, Unit 3, Fishguard Road","active":"1","aid":"48","show_on_map":"1","photo":"https:\/\/profilepicsbucket.crossfit.com\/6c147-A48_2-184.jpg"},{"website":"http:\/\/www.crossfitm3t.com","city":"Liverpool","kids":"0","photo_version":"1","name":"CrossFit M3T","zip":"L33 7UT","bad_standing":"0","country":"United Kingdom","ready_to_link":"1","latlon":"53.46901827460374,-2.8635692596435542","country_short_code":"GB","ordernum":"7923","org_type":"Commercial","status":"0","address":"Unit 24 Faraday Road  Britonwood Trading Estate","active":"1","aid":"10765","show_on_map":"1","photo":"https:\/\/profilepicsbucket.crossfit.com\/bc004-A10765_1-184.jpg"},{"website":"http:\/\/www.crossfitchalkbox.com\/","city":"Sevenoaks","kids":"1","photo_version":"2","name":"CrossFit ChalkBox","zip":"TN15 9JB","bad_standing":"0","country":"United Kingdom","ready_to_link":"1","latlon":"51.2950179,0.2970114","country_short_code":"GB","ordernum":"7953","org_type":"Commercial","status":"0","address":"Cricketts Farm Borough Green Road TN15 9JB","active":"1","aid":"10070","show_on_map":"1","photo":"https:\/\/profilepicsbucket.crossfit.com\/d02f0-A10070_2-184.jpg"},{"website":"http:\/\/crossfitascot.co.uk\/","city":"Ascot","kids":"1","photo_version":"0","name":"CrossFit Ascot","zip":"SL5 9ED","bad_standing":"0","country":"United Kingdom","ready_to_link":"1","latlon":"51.4052075,-0.6765963","country_short_code":"GB","ordernum":"8006","org_type":"Commercial","status":"0","address":"Unit C, Station Works","active":"1","aid":"11254","show_on_map":"1","photo":"https:\/\/profilepicsbucket.crossfit.com\/pukie.png"},{"website":"http:\/\/crossfitwirral.co.uk\/","city":"Birkenhead Wirral","kids":"0","photo_version":"1","name":"CrossFit Wirral","bad_standing":"0","country":"United Kingdom","ready_to_link":"1","latlon":"53.38491536561467,-3.0195236206054688","country_short_code":"GB","ordernum":"8058","org_type":"Commercial","status":"0","address":"Unit 102 Argyle Industrial Estate","active":"1","aid":"7492","show_on_map":"1","photo":"https:\/\/profilepicsbucket.crossfit.com\/804a5-A7492_1-184.jpg"},{"website":"http:\/\/www.coreperformance.co.uk\/","city":"Bedford","kids":"0","photo_version":"1","name":"Core Performance CrossFit","zip":"MK41 0EH","bad_standing":"0","country":"United Kingdom","ready_to_link":"1","latlon":"52.1457642,-0.4188003","country_short_code":"GB","ordernum":"8067","org_type":"Commercial","status":"0","address":"4-6 Sergeants Way","active":"1","aid":"7938","show_on_map":"1","photo":"https:\/\/profilepicsbucket.crossfit.com\/54d79-A7938_1-184.jpg"},{"website":"http:\/\/www.crossfitswansea.co.uk\/","city":"Swansea","kids":"0","photo_version":"3","name":"CrossFit Swansea","zip":"SA6 8JG","bad_standing":"0","country":"United Kingdom","ready_to_link":"1","latlon":"51.6536697,-3.9256194","country_short_code":"GB","ordernum":"8079","org_type":"Commercial","status":"0","address":"Unit 8 Beaufort Court, Beaufort Road, Plasmarl","active":"1","aid":"5672","show_on_map":"1","photo":"https:\/\/profilepicsbucket.crossfit.com\/2204a-A5672_3-184.jpg"},{"website":"http:\/\/www.crossfitaldermaston.com\/","city":"Aldermaston","kids":"1","photo_version":"0","name":"CrossFit Aldermaston","zip":"RG7 4NT","bad_standing":"0","country":"United Kingdom","ready_to_link":"1","latlon":"51.37696292063558,-1.127541034408523","country_short_code":"GB","ordernum":"8085","org_type":"Commercial","status":"0","address":"Court Farm, Unit 4 & Yard, Rag Hill","active":"1","aid":"11228","show_on_map":"1","photo":"https:\/\/profilepicsbucket.crossfit.com\/pukie.png"},{"website":"http:\/\/www.crossfit-regain.com\/","city":"Leeds","kids":"1","photo_version":"1","name":"CrossFit Regain","zip":"LS17 7NT","bad_standing":"0","country":"United Kingdom","ready_to_link":"1","latlon":"53.856706,-1.5548631","country_short_code":"GB","ordernum":"8166","org_type":"Commercial","status":"0","address":"The Calum Johnston Sports Centre, Far Moss Sports Ground, Alwoodley","active":"1","aid":"11568","show_on_map":"1","photo":"https:\/\/profilepicsbucket.crossfit.com\/2589c-A11568_1-184.jpg"},{"website":"http:\/\/www.crossfit1864.com\/#about","city":"London","kids":"0","photo_version":"1","name":"CrossFit 1864","zip":"E14 0JY","bad_standing":"0","country":"United Kingdom","ready_to_link":"1","latlon":"51.5084074,0.0080366","country_short_code":"GB","ordernum":"8172","org_type":"Commercial","status":"0","address":"64 Orchard Place Trinity Buoy Wharf","active":"1","aid":"11562","show_on_map":"1","photo":"https:\/\/profilepicsbucket.crossfit.com\/5f1b1-A11562_1-184.jpg"},{"website":"http:\/\/www.crossfitnorthumbria.com\/","city":"Newcastle upon Tyne","kids":"0","photo_version":"0","name":"CrossFit Northumbria","zip":"NE3 2ER","bad_standing":"0","country":"United Kingdom","ready_to_link":"1","latlon":"55.008776,-1.665889","country_short_code":"GB","ordernum":"8191","org_type":"Commercial","status":"0","address":"Unit 1, Mast House, Beaminster Way East, Kingston Park","active":"1","aid":"10961","show_on_map":"1","photo":"https:\/\/profilepicsbucket.crossfit.com\/pukie.png"},{"website":"http:\/\/crossfitlutterworth.com\/","city":"Lutterworth","kids":"0","photo_version":"1","name":"CrossFit Lutterworth","zip":"LE17 4HD","bad_standing":"0","country":"United Kingdom","ready_to_link":"1","latlon":"52.4622696,-1.1968959","country_short_code":"GB","ordernum":"8208","org_type":"Commercial","status":"0","address":"Unit 2 Ladywood Works, Leicester Road","active":"1","aid":"11646","show_on_map":"1","photo":"https:\/\/profilepicsbucket.crossfit.com\/400e5-A11646_1-184.jpg"},{"website":"http:\/\/www.crossfitmpg.com\/","city":"Portishead","kids":"0","photo_version":"0","name":"CrossFit MPG","zip":"BS207BL","bad_standing":"0","country":"United Kingdom","ready_to_link":"1","latlon":"51.4856428,-2.7585045","country_short_code":"GB","ordernum":"8239","org_type":"Commercial","status":"0","address":"Unit 4, Harbour Road Trading Estate","active":"1","aid":"9746","show_on_map":"1","photo":"https:\/\/profilepicsbucket.crossfit.com\/pukie.png"},{"website":"http:\/\/www.crossfitsoutheastwitham.com\/","city":"Witham","kids":"0","photo_version":"0","name":"CrossFit SouthEast Witham","zip":"CM8 3UX","bad_standing":"0","country":"United Kingdom","ready_to_link":"1","latlon":"51.7957166,0.6474681","country_short_code":"GB","ordernum":"8271","org_type":"Commercial","status":"0","address":"E2 Briarsford Industrial Estate, Perry Road","active":"1","aid":"11264","show_on_map":"1","photo":"https:\/\/profilepicsbucket.crossfit.com\/pukie.png"},{"website":"http:\/\/www.crossfit-corinthian.co.uk\/","city":"Newhaven","kids":"1","photo_version":"1","name":"CrossFit Corinthian","zip":"BN9 0BY","bad_standing":"0","country":"United Kingdom","ready_to_link":"1","latlon":"50.7899615,0.0569171","country_short_code":"GB","ordernum":"8312","org_type":"Commercial","status":"0","address":"Unit 2. Newhaven Workshops. Beach Close.","active":"1","aid":"9247","show_on_map":"1","photo":"https:\/\/profilepicsbucket.crossfit.com\/b2b2c-A9247_1-184.jpg"},{"website":"http:\/\/www.crossfitvolentia.com\/","city":"Rugby","kids":"0","photo_version":"1","name":"CrossFit Volentia","zip":"CV21 2UH","bad_standing":"0","country":"United Kingdom","ready_to_link":"1","latlon":"52.3743392,-1.2872851","country_short_code":"GB","ordernum":"8328","org_type":"Commercial","status":"0","address":"Unit 1, 20 Paynes Lane","active":"1","aid":"11186","show_on_map":"1","photo":"https:\/\/profilepicsbucket.crossfit.com\/c3610-A11186_1-184.jpg"},{"website":"http:\/\/www.crossfitblockhouse.co.uk","city":"Andover","kids":"0","photo_version":"0","name":"CrossFit Blockhouse","zip":"SP10 3UR","bad_standing":"0","country":"United Kingdom","ready_to_link":"1","latlon":"51.2167276,-1.5163012","country_short_code":"GB","ordernum":"8344","org_type":"Commercial","status":"0","address":"Unit G Portway West Business Park, Hopkinson Way","active":"1","aid":"11875","show_on_map":"1","photo":"https:\/\/profilepicsbucket.crossfit.com\/pukie.png"},{"website":"http:\/\/www.crossfitbromborough.com","city":"Bromborough","kids":"1","photo_version":"3","name":"CrossFit Bromborough","zip":"CH623RA","bad_standing":"0","country":"United Kingdom","ready_to_link":"1","latlon":"53.3393003,-2.97282","country_short_code":"GB","ordernum":"8345","org_type":"Commercial","status":"0","address":"Unit 36 Carrock Road, Croft Business Park","active":"1","aid":"11837","show_on_map":"1","photo":"https:\/\/profilepicsbucket.crossfit.com\/90854-A11837_3-184.jpg"},{"website":"http:\/\/www.crossfitcamberley.com","city":"Blackwater","kids":"1","photo_version":"4","name":"CrossFit Camberley","zip":"GU17 9AE","bad_standing":"0","country":"United Kingdom","ready_to_link":"1","latlon":"51.332037624914975,-0.7776162972961629","country_short_code":"GB","ordernum":"8353","org_type":"Commercial","status":"0","address":"Unit 1 White Hart Estate, London Road","active":"1","aid":"2148","show_on_map":"1","photo":"https:\/\/profilepicsbucket.crossfit.com\/9528d-A2148_4-184.jpg"},{"website":"http:\/\/crossfitglacier.com\/","city":"Washington","kids":"0","photo_version":"1","name":"CrossFit Glacier","zip":"Ne372sh","bad_standing":"0","country":"United Kingdom","ready_to_link":"1","latlon":"54.9086572,-1.5113659","country_short_code":"GB","ordernum":"8370","org_type":"Commercial","status":"0","address":"Unit 5 Tower Road","active":"1","aid":"11601","show_on_map":"1","photo":"https:\/\/profilepicsbucket.crossfit.com\/b236e-A11601_1-184.jpg"},{"website":"http:\/\/www.crossfitbridlington.com","city":"Bridlington","kids":"0","photo_version":"0","name":"CrossFit Bridlington","zip":"YO16 4SJ","bad_standing":"0","country":"United Kingdom","ready_to_link":"1","latlon":"54.0804748,-0.2114971","country_short_code":"GB","ordernum":"8378","org_type":"Commercial","status":"0","address":"Micro unit A, Bridlington Business Park, Bessingby Way","active":"1","aid":"11469","show_on_map":"1","photo":"https:\/\/profilepicsbucket.crossfit.com\/pukie.png"},{"website":"http:\/\/www.atlanticwaycrossfit.com","city":"Barry","kids":"0","photo_version":"2","name":"Atlantic Way CrossFit","zip":"CF633RF","bad_standing":"0","country":"United Kingdom","ready_to_link":"1","latlon":"51.3988786,-3.2473083","country_short_code":"GB","ordernum":"8387","org_type":"Commercial","status":"0","address":"Unit 15B Atlantic Trading Estate","active":"1","aid":"9108","show_on_map":"1","photo":"https:\/\/profilepicsbucket.crossfit.com\/7e6d2-A9108_2-184.jpg"},{"website":"http:\/\/crossfitaldgate.com","city":"London","kids":"0","photo_version":"1","name":"CrossFit Aldgate","zip":"EC3A 7BT","bad_standing":"0","country":"United Kingdom","ready_to_link":"1","latlon":"51.5155293,-0.0788614","country_short_code":"GB","ordernum":"8449","org_type":"Commercial","status":"0","address":"117 Houndsditch","active":"1","aid":"12120","show_on_map":"1","photo":"https:\/\/profilepicsbucket.crossfit.com\/1137e-A12120_1-184.jpg"},{"website":"http:\/\/www.crossfitincursion.com","city":"Westridge Business Park","kids":"1","photo_version":"0","name":"CrossFit Incursion","zip":"PO33 1QT","bad_standing":"0","country":"United Kingdom","ready_to_link":"1","latlon":"50.7133111,-1.1452918","country_short_code":"GB","ordernum":"8457","org_type":"Commercial","status":"0","address":"Unit 4 Cypress Court","active":"1","aid":"11801","show_on_map":"1","photo":"https:\/\/profilepicsbucket.crossfit.com\/pukie.png"},{"website":"http:\/\/www.crossfitp10.com\/","city":"Cheltenham","kids":"0","photo_version":"0","name":"CrossFit P10","zip":"GL51 8HE","bad_standing":"0","country":"United Kingdom","ready_to_link":"1","latlon":"51.9025765,-2.0953604","country_short_code":"GB","ordernum":"8464","org_type":"Commercial","status":"0","address":"Alstone Lane","active":"1","aid":"12076","show_on_map":"1","photo":"https:\/\/profilepicsbucket.crossfit.com\/pukie.png"},{"website":"http:\/\/www.crossfitsunderlandsr1.com\/home\/4585572134","city":"Sunderland","kids":"1","photo_version":"1","name":"CrossFit Sunderland SR1","zip":"SR1 1PB","bad_standing":"0","country":"United Kingdom","ready_to_link":"1","latlon":"54.9042429,-1.3772213","country_short_code":"GB","ordernum":"8470","org_type":"Commercial","status":"0","address":"14 Tavistock Place","active":"1","aid":"10668","show_on_map":"1","photo":"https:\/\/profilepicsbucket.crossfit.com\/cba77-A10668_1-184.jpg"},{"website":"http:\/\/crossfitstalbans.org\/","city":"St. Albans","kids":"0","photo_version":"1","name":"CrossFit St Albans","zip":"AL1 1PN","bad_standing":"0","country":"United Kingdom","ready_to_link":"1","latlon":"51.7449667,-0.326794","country_short_code":"GB","ordernum":"8558","org_type":"Commercial","status":"0","address":"Unit 3 London Road Industrial Estate 222 London Road","active":"1","aid":"11039","show_on_map":"1","photo":"https:\/\/profilepicsbucket.crossfit.com\/83441-A11039_1-184.jpg"},{"website":"http:\/\/www.crossfithammersmith.com\/","city":"London","kids":"1","photo_version":"0","name":"CrossFit Hammersmith","zip":"W6 0LD","bad_standing":"0","country":"United Kingdom","ready_to_link":"1","latlon":"51.4938968,-0.2311931","country_short_code":"GB","ordernum":"8560","org_type":"Commercial","status":"0","address":"Arch 64, Cambridge Grove","active":"1","aid":"12279","show_on_map":"1","photo":"https:\/\/profilepicsbucket.crossfit.com\/pukie.png"},{"website":"https:\/\/crossfitol1.com\/","city":"Oldham","kids":"0","photo_version":"1","name":"CrossFit OL1","zip":"OL1 3LL","bad_standing":"0","country":"United Kingdom","ready_to_link":"1","latlon":"53.54657104085304,-2.0977610349655156","country_short_code":"GB","ordernum":"8611","org_type":"Commercial","status":"0","address":"3, Gould Street","active":"1","aid":"12270","show_on_map":"1","photo":"https:\/\/profilepicsbucket.crossfit.com\/7f9fa-A12270_1-184.jpg"},{"website":"http:\/\/www.crossfit-bold.com\/#welcome","city":"Earlsfield","kids":"1","photo_version":"0","name":"CrossFit Bold","zip":"SW18 4HS","bad_standing":"0","country":"United Kingdom","ready_to_link":"1","latlon":"51.4398569,-0.191439","country_short_code":"GB","ordernum":"8667","org_type":"Commercial","status":"0","address":"Unit 1a Haslemere Industrial Estate, Ravensbury Terrace","active":"1","aid":"11220","show_on_map":"1","photo":"https:\/\/profilepicsbucket.crossfit.com\/pukie.png"},{"website":"http:\/\/www.royaldockscrossfit.com","city":"London","kids":"0","photo_version":"1","name":"Royal Docks CrossFit","zip":"E16 1DR","bad_standing":"0","country":"United Kingdom","ready_to_link":"1","latlon":"51.5092692,0.0255645","country_short_code":"GB","ordernum":"8670","org_type":"Commercial","status":"0","address":"Unit A Warehouse K, 2 Western Gateway","active":"1","aid":"11098","show_on_map":"1","photo":"https:\/\/profilepicsbucket.crossfit.com\/690b6-A11098_1-184.jpg"},{"website":"http:\/\/www.crossfitfaber.com\/","city":"Stoneleigh Park","kids":"0","photo_version":"0","name":"CrossFit Faber","zip":"CV8 2LZ","bad_standing":"0","country":"United Kingdom","ready_to_link":"1","latlon":"52.3399318,-1.5271174","country_short_code":"GB","ordernum":"8698","org_type":"Commercial","status":"0","address":"10th Street","active":"1","aid":"11982","show_on_map":"1","photo":"https:\/\/profilepicsbucket.crossfit.com\/pukie.png"},{"website":"http:\/\/www.crossfitcaber.co.uk\/","city":"Greenock","kids":"0","photo_version":"2","name":"CrossFit Caber","zip":"Pa15 11r","bad_standing":"0","country":"United Kingdom","ready_to_link":"1","latlon":"55.9528123,-4.7621037","country_short_code":"GB","ordernum":"8750","org_type":"Commercial","status":"0","address":"Unit 5 Crawfurd street","active":"1","aid":"12633","show_on_map":"1","photo":"https:\/\/profilepicsbucket.crossfit.com\/2be2c-A12633_2-184.jpg"},{"website":"http:\/\/crossfit-weymouth.co.uk\/","city":"Weymouth","kids":"0","photo_version":"1","name":"CrossFit Weymouth","zip":"DT4 9DT","bad_standing":"0","country":"United Kingdom","ready_to_link":"1","latlon":"50.6069234,-2.4896119","country_short_code":"GB","ordernum":"8768","org_type":"Commercial","status":"0","address":"Littlesea estate, Lynch Lane, Unit L3","active":"1","aid":"12589","show_on_map":"1","photo":"https:\/\/profilepicsbucket.crossfit.com\/35b40-A12589_1-184.jpg"},{"website":"http:\/\/www.crossfitimperative.com\/","city":"Chorlton-cum-hardy","kids":"0","photo_version":"0","name":"CrossFit Imperative","zip":"M21 8ER","bad_standing":"0","country":"United Kingdom","ready_to_link":"1","latlon":"53.4346912,-2.2735615","country_short_code":"GB","ordernum":"8771","org_type":"Commercial","status":"0","address":"Unit 3, 419-421 Barlow Moor Rd","active":"1","aid":"12646","show_on_map":"1","photo":"https:\/\/profilepicsbucket.crossfit.com\/pukie.png"},{"website":"http:\/\/crossfit888.co.uk\/","city":"Over","kids":"0","photo_version":"0","name":"CrossFit 888","zip":"Cb245aa","bad_standing":"0","country":"United Kingdom","ready_to_link":"1","latlon":"52.3042674,0.0190789","country_short_code":"GB","ordernum":"8782","org_type":"Commercial","status":"0","address":"Norman Way Industrial Estate, Unit 15","active":"1","aid":"12245","show_on_map":"1","photo":"https:\/\/profilepicsbucket.crossfit.com\/pukie.png"},{"website":"http:\/\/www.newtonabbotcrossfit.com\/","city":"Newton Abbot","kids":"0","photo_version":"1","name":"Newton Abbot CrossFit","zip":"TQ12 3SG","bad_standing":"0","country":"United Kingdom","ready_to_link":"1","latlon":"50.5424713,-3.5972316","country_short_code":"GB","ordernum":"8836","org_type":"Commercial","status":"0","address":"Unit 7 , Swift Industrial Estate, Kingsteignton","active":"1","aid":"12328","show_on_map":"1","photo":"https:\/\/profilepicsbucket.crossfit.com\/072fd-A12328_1-184.jpg"},{"website":"http:\/\/www.crossfitblackwater.com","city":"Witham","kids":"0","photo_version":"1","name":"CrossFit Blackwater","zip":"CM8 3DR","bad_standing":"0","country":"United Kingdom","ready_to_link":"1","latlon":"51.8073027,0.6475859","country_short_code":"GB","ordernum":"8843","org_type":"Commercial","status":"0","address":"Unit 11 Crittall Place, 29 Crittall Road","active":"1","aid":"12726","show_on_map":"1","photo":"https:\/\/profilepicsbucket.crossfit.com\/cf79f-A12726_1-184.jpg"},{"website":"http:\/\/www.crossfitskirmish.co.uk","city":"Edinburgh","kids":"1","photo_version":"2","name":"CrossFit Skirmish","zip":"EH14 1XN","bad_standing":"0","country":"United Kingdom","ready_to_link":"1","latlon":"55.9276914,-3.2336086","country_short_code":"GB","ordernum":"8845","org_type":"Commercial","status":"0","address":"2 Meggetland Wynd","active":"1","aid":"12862","show_on_map":"1","photo":"https:\/\/profilepicsbucket.crossfit.com\/496f7-A12862_2-184.jpg"},{"website":"http:\/\/www.crossfitenniskillen.com","city":"Enniskillen","kids":"0","photo_version":"0","name":"CrossFit Enniskillen","zip":"BT74 4RH","bad_standing":"0","country":"United Kingdom","ready_to_link":"1","latlon":"54.35026615327557,-7.604577541351318","country_short_code":"GB","ordernum":"8905","org_type":"Commercial","status":"0","address":"Unit 2, 125 Tempo Road","active":"1","aid":"12966","show_on_map":"1","photo":"https:\/\/profilepicsbucket.crossfit.com\/pukie.png"},{"website":"http:\/\/www.blackopshalifax.co.uk\/","city":"Elland","kids":"0","photo_version":"0","name":"CrossFit HX5","zip":"HX59JU","bad_standing":"0","country":"United Kingdom","ready_to_link":"1","latlon":"53.6834166,-1.8174461","country_short_code":"GB","ordernum":"8937","org_type":"Commercial","status":"0","address":"Cooperas Works, Dewsbury Road","active":"1","aid":"12761","show_on_map":"1","photo":"https:\/\/profilepicsbucket.crossfit.com\/pukie.png"},{"website":"http:\/\/www.whiterosecrossfit.com\/","city":"Leeds","kids":"1","photo_version":"1","name":"White Rose CrossFit","zip":"LS18 5AZ","bad_standing":"0","country":"United Kingdom","ready_to_link":"1","latlon":"53.8453538,-1.6326701","country_short_code":"GB","ordernum":"8946","org_type":"Commercial","status":"0","address":"Unit 9 Lister Hill, Horsforth","active":"1","aid":"12306","show_on_map":"1","photo":"https:\/\/profilepicsbucket.crossfit.com\/0efa9-A12306_1-184.jpg"},{"website":"http:\/\/79.170.44.115\/stonehengecrossfit.co.uk\/","city":"Salisbury","kids":"0","photo_version":"0","name":"Stonehenge CrossFit","zip":"Sp2 8nw","bad_standing":"0","country":"United Kingdom","ready_to_link":"1","latlon":"51.0611512,-1.8080935","country_short_code":"GB","ordernum":"8963","org_type":"Commercial","status":"0","address":"Unit 4b\/6 Netherhampton Road","active":"1","aid":"12968","show_on_map":"1","photo":"https:\/\/profilepicsbucket.crossfit.com\/pukie.png"},{"website":"http:\/\/www.sarumcrossfit.co.uk\/","city":"Salisbury","kids":"1","photo_version":"3","name":"Sarum CrossFit","zip":"SP4 6FB","bad_standing":"0","country":"United Kingdom","ready_to_link":"1","latlon":"51.1001867,-1.7868402","country_short_code":"GB","ordernum":"8997","org_type":"Commercial","status":"0","address":"Unit 11-12, Sarum Business Park","active":"1","aid":"3985","show_on_map":"1","photo":"https:\/\/profilepicsbucket.crossfit.com\/6da39-A3985_3-184.jpg"},{"website":"http:\/\/crossfitmurrayfield.com\/","city":"Edinburgh","kids":"0","photo_version":"1","name":"CrossFit Murrayfield","zip":"EH11 2NN","bad_standing":"0","country":"United Kingdom","ready_to_link":"1","latlon":"55.943374906835004,-3.226611509722943","country_short_code":"GB","ordernum":"9056","org_type":"Commercial","status":"0","address":"Unit 6 Russell Rd, Sauchiebank","active":"1","aid":"12777","show_on_map":"1","photo":"https:\/\/profilepicsbucket.crossfit.com\/6ee6e-A12777_1-184.jpg"},{"website":"http:\/\/www.crossfitnorthernsoul.com\/","city":"Failsworth","kids":"1","photo_version":"1","name":"CrossFit Northern Soul","zip":"M35 9BG","bad_standing":"0","country":"United Kingdom","ready_to_link":"1","latlon":"53.5120886,-2.1559878","country_short_code":"GB","ordernum":"9061","org_type":"Commercial","status":"0","address":"Unit G3 Ivy Mill, Crown Street","active":"1","aid":"11054","show_on_map":"1","photo":"https:\/\/profilepicsbucket.crossfit.com\/15358-A11054_1-184.jpg"}]}